timestamp,DesRoll,Roll,DesPitch,Pitch,DesYaw,Yaw,ErrRP,ErrYaw,MagX,MagY,MagZ,abGyrX,abGyrY,abGyrZ,abAccX,abAccY,abAccZ,labels
358263304.0,6.64,18.61,7.47,-2.43,31.9,2.47,0.23,0.23,237.0,-35.0,-35.0,-2.353766,0.2949391,0.06915566,-0.3448552,-0.01436913,-9.785996,3
358313284.0,5.58,32.145,8.18,-3.845,26.36,174.635,0.23,0.23,212.5,-134.5,-134.5,1.783252,-1.61983,0.07581963,-0.3456594,-0.00570457,-9.834684,3
358363264.0,4.52,45.68,8.89,-5.26,20.82,346.8,0.23,0.23,188.0,-234.0,-234.0,-0.7530501,-2.163296,0.05946077,-0.3090984,-0.014484,-9.867117,3
358363264.0,4.52,45.68,8.89,-5.26,20.82,346.8,0.23,0.23,188.0,-234.0,-234.0,-0.4883422,2.343399,0.0643197,-0.3043112,-0.0175544,-9.840919,3
358413660.5,1.2,59.0,9.275,-1.06,185.065,332.69,0.22,0.22,176.5,-309.5,-309.5,1.90927,1.450326,0.04999107,-0.2992376,0.00412322,-9.858066,3
358464057.0,-2.12,72.32,9.66,3.14,349.31,318.58,0.21,0.21,165.0,-385.0,-385.0,2.015968,-1.359132,0.06439161,-0.2444286,-0.03094129,-9.839464,3
358464057.0,-2.12,72.32,9.66,3.14,349.31,318.58,0.21,0.21,165.0,-385.0,-385.0,-2.430897,-0.08766291,0.0621815,-0.248137,-0.03504023,-9.806232,3
358514037.0,-6.005,79.365,4.745,16.295,313.475,297.78,0.21,0.21,184.5,-419.0,-419.0,-0.8393724,2.162372,0.05209475,-0.3228651,-0.00848919,-9.839201,3
358564017.0,-9.89,86.41,-0.17,29.45,277.64,276.98,0.21,0.21,204.0,-453.0,-453.0,-0.4862878,-2.303252,0.04620049,-0.2290348,0.01225412,-9.850389,3
358564017.0,-9.89,86.41,-0.17,29.45,277.64,276.98,0.21,0.21,204.0,-453.0,-453.0,1.749526,1.57103,0.03863983,-0.2703043,0.00669032,-9.85769,3
358613997.0,-7.63,65.59,-4.265,30.97,249.28,251.385,0.22,0.22,143.5,-326.0,-326.0,-2.359407,-0.287491,0.04442238,-0.2384221,-0.06414683,-9.796793,3
358663977.0,-5.37,44.77,-8.36,32.49,220.92,225.79,0.23,0.23,83.0,-199.0,-199.0,-0.9657976,2.113062,0.04376351,-0.2703668,-0.0009384,-9.778841,3
358663977.0,-5.37,44.77,-8.36,32.49,220.92,225.79,0.23,0.23,83.0,-199.0,-199.0,2.082809,-1.21467,0.05353076,-0.2235261,0.01530184,-9.864546,3
358713957.0,-6.3,30.835,-7.14,21.965,220.73,226.875,0.23,0.23,-49.0,-22.0,-22.0,-0.2910568,-2.328843,0.03802475,-0.2196056,0.04746716,-9.830785,3
358763937.0,-7.23,16.9,-5.92,11.44,220.54,227.96,0.23,0.23,-181.0,155.0,155.0,1.603343,1.740586,0.02647721,-0.2457171,0.04382817,-9.860271,3
358763937.0,-7.23,16.9,-5.92,11.44,220.54,227.96,0.23,0.23,-181.0,155.0,155.0,-2.365487,-0.5462645,0.03506644,-0.1886874,0.01996737,-9.824305,3
358813917.0,-7.725,11.85,-5.235,7.875,219.025,229.595,0.26,0.26,-181.0,155.0,155.0,2.192155,-1.035611,0.04261136,-0.1799539,0.02230852,-9.860807,3
358863897.0,-8.22,6.8,-4.55,4.31,217.51,231.23,0.29,0.29,-181.0,155.0,155.0,-0.00215558,-2.397707,0.03473157,-0.1409809,-0.00945657,-9.816232,3
358863897.0,-8.22,6.8,-4.55,4.31,217.51,231.23,0.29,0.29,-181.0,155.0,155.0,-1.182712,2.012056,0.03864438,-0.2003092,-0.0062064,-9.806316,3
358913877.0,-7.92,4.895,-5.24,3.1,214.88,231.975,0.29,0.29,-181.0,154.5,154.5,1.39225,1.947356,0.01991829,-0.1820097,0.01226361,-9.840109,3
358963857.0,-7.62,2.99,-5.93,1.89,212.25,232.72,0.29,0.29,-181.0,154.0,154.0,2.318814,-0.5847589,0.03558951,-0.1374781,0.02064836,-9.851723,3
358963857.0,-7.62,2.99,-5.93,1.89,212.25,232.72,0.29,0.29,-181.0,154.0,154.0,-2.235027,-0.8427199,0.0292931,-0.1383577,-0.01482765,-9.818895,3
359013837.0,-6.84,5.305,-6.775,0.945,209.31,232.455,0.285,0.285,-181.0,148.5,148.5,-1.554919,1.740859,0.03708951,-0.2001168,-0.00418256,-9.795027,3
359063817.0,-6.06,7.62,-7.62,0.0,206.37,232.19,0.28,0.28,-181.0,143.0,143.0,0.3361371,-2.339922,0.0350651,-0.08763015,0.02747886,-9.851195,3
359063817.0,-6.06,7.62,-7.62,0.0,206.37,232.19,0.28,0.28,-181.0,143.0,143.0,1.098169,2.103492,0.02030315,-0.1419781,0.01946255,-9.891562,3
359113797.0,-5.43,17.905,-8.11,-5.275,203.375,224.745,0.28,0.28,-220.0,62.5,62.5,-2.145645,-1.122109,0.02725453,-0.1044154,0.00724937,-9.900429,3
359163777.0,-4.8,28.19,-8.6,-10.55,200.38,217.3,0.28,0.28,-259.0,-18.0,-18.0,-1.508857,1.464312,0.0464353,-0.08844391,-0.00515533,-10.16867,3
359163777.0,-4.8,28.19,-8.6,-10.55,200.38,217.3,0.28,0.28,-259.0,-18.0,-18.0,2.498102,-0.6511322,0.03956077,-0.1270092,0.03340195,-10.05965,3
359213757.0,-4.66,40.89,-8.695,-10.585,197.34,202.1,0.255,0.255,-301.0,-142.5,-142.5,0.5718753,-2.843559,0.06033459,-0.08662377,-0.03723907,-10.28958,3
359263737.0,-4.52,53.59,-8.79,-10.62,194.3,186.9,0.23,0.23,-343.0,-267.0,-267.0,1.206661,1.773007,0.062468,-0.1425108,-0.01170217,-10.26104,3
359263737.0,-4.52,53.59,-8.79,-10.62,194.3,186.9,0.23,0.23,-343.0,-267.0,-267.0,-2.051572,-1.798855,0.09079915,-0.09926676,-0.03567178,-10.20013,3
359313717.0,-2.76,63.89,-9.25,-1.04,178.81,167.885,0.23,0.23,-289.5,-384.5,-384.5,2.674045,-0.8095478,0.126503,-0.1558405,0.01256156,-10.16844,3
359363697.0,-1.0,74.19,-9.71,8.54,163.32,148.87,0.23,0.23,-236.0,-502.0,-502.0,0.8028247,-2.912365,0.1941777,-0.143867,0.00280374,-10.09763,3
359363697.0,-1.0,74.19,-9.71,8.54,163.32,148.87,0.23,0.23,-236.0,-502.0,-502.0,-1.800654,0.8250911,0.1588103,-0.1135526,-0.03149536,-10.15872,3
359413677.0,3.485,71.87,-7.49,24.95,125.45,121.69,0.215,0.215,-47.0,-518.5,-518.5,0.8997791,1.760526,0.2148093,-0.1653261,-0.00932486,-10.17713,3
359463657.0,7.97,69.55,-5.27,41.36,87.58,94.51,0.2,0.2,142.0,-535.0,-535.0,-1.868988,-2.110709,0.2565672,-0.1413861,-0.01747191,-10.12381,3
359463657.0,7.97,69.55,-5.27,41.36,87.58,94.51,0.2,0.2,142.0,-535.0,-535.0,2.62548,-0.3738897,0.3008499,-0.1740776,0.01332483,-10.08652,3
359513637.0,8.235,39.57,-0.545,46.825,51.395,224.04,0.2,0.2,329.5,-365.5,-365.5,-2.028034,0.6084281,0.3409807,-0.2058966,-0.05899569,-10.14294,3
359563617.0,8.5,9.59,4.18,52.29,15.21,353.57,0.2,0.2,517.0,-196.0,-196.0,0.4417524,1.861353,0.3744268,-0.230331,-0.06171861,-10.17692,3
359563617.0,8.5,9.59,4.18,52.29,15.21,353.57,0.2,0.2,517.0,-196.0,-196.0,1.158769,-2.783036,0.3712803,-0.1821905,-0.02666438,-10.1241,3
359613597.0,6.97,3.77,5.82,37.305,184.715,340.39,0.225,0.225,394.0,-17.0,-17.0,-1.717293,-2.20979,0.3900539,-0.2180894,-0.08650094,-10.26644,3
359663577.0,5.44,-2.05,7.46,22.32,354.22,327.21,0.25,0.25,271.0,162.0,162.0,2.441282,0.2416531,0.4093461,-0.279456,-0.02165468,-10.1302,3
359663577.0,5.44,-2.05,7.46,22.32,354.22,327.21,0.25,0.25,271.0,162.0,162.0,-2.31076,0.7060978,0.4346697,-0.2557013,-0.03817125,-10.30684,3
359713557.0,3.31,-1.415,7.955,15.155,354.085,327.045,0.25,0.25,216.5,168.0,168.0,1.399692,-2.250486,0.4335769,-0.3124543,-0.04084391,-10.08819,3
359763537.0,1.18,-0.78,8.45,7.99,353.95,326.88,0.25,0.25,162.0,174.0,174.0,0.06439181,2.411058,0.4265137,-0.4451217,-0.01365609,-10.16878,3
359763537.0,1.18,-0.78,8.45,7.99,353.95,326.88,0.25,0.25,162.0,174.0,174.0,-1.366025,-2.136388,0.4144972,-0.3406041,-0.00682092,-10.17036,3
359813517.0,0.23,-0.525,8.74,5.355,353.705,326.74,0.265,0.265,162.0,174.0,174.0,2.326698,0.8358229,0.4033779,-0.4327585,0.02460246,-10.09195,3
359863497.0,-0.72,-0.27,9.03,2.72,353.46,326.6,0.28,0.28,162.0,174.0,174.0,-2.416831,0.614674,0.4030437,-0.4826123,-0.0773324,-10.26379,3
359863497.0,-0.72,-0.27,9.03,2.72,353.46,326.6,0.28,0.28,162.0,174.0,174.0,1.635196,-1.888098,0.3811995,-0.4734995,0.00946468,-10.03251,3
359913477.0,-0.57,-0.18,9.255,1.74,353.295,326.465,0.28,0.28,162.0,174.0,174.0,-0.403907,2.456448,0.3537838,-0.6032696,-0.02282233,-10.12094,3
359963457.0,-0.42,-0.09,9.48,0.76,353.13,326.33,0.28,0.28,162.0,174.0,174.0,2.159406,1.140796,0.2866117,-0.5809395,0.0473555,-10.00131,3
359963457.0,-0.42,-0.09,9.48,0.76,353.13,326.33,0.28,0.28,162.0,174.0,174.0,-0.9719762,-2.302723,0.3181456,-0.5353444,-0.02341975,-10.01401,3
360013437.0,0.21,-0.06,9.545,0.39,353.025,326.185,0.275,0.275,162.0,174.5,174.5,-2.432537,0.2207844,0.2762798,-0.6763273,-0.00886947,-10.17806,3
360063417.0,0.84,-0.03,9.61,0.02,352.92,326.04,0.27,0.27,162.0,175.0,175.0,1.847438,-1.689723,0.2479997,-0.7295414,-0.01163571,-9.948996,3
360063417.0,0.84,-0.03,9.61,0.02,352.92,326.04,0.27,0.27,162.0,175.0,175.0,-0.5851377,2.394816,0.2152985,-0.7761058,0.02398551,-10.10335,3
360113397.0,1.24,-0.035,9.625,-0.115,352.81,325.9,0.27,0.27,161.5,175.0,175.0,-0.750648,-2.445025,0.1783211,-0.7577618,0.01833073,-10.00108,3
360163377.0,1.64,-0.04,9.64,-0.25,352.7,325.76,0.27,0.27,161.0,175.0,175.0,1.976334,1.30323,0.1411739,-0.8796439,0.04255519,-9.928925,3
360163377.0,1.64,-0.04,9.64,-0.25,352.7,325.76,0.27,0.27,161.0,175.0,175.0,-2.513913,-0.04586095,0.124636,-0.8411849,0.00714989,-10.17161,3
360213357.0,1.715,-0.055,9.68,-0.305,352.585,325.64,0.25,0.25,161.0,175.0,175.0,1.940761,-1.516849,0.09610581,-0.8607246,0.05775322,-9.856871,3
360263337.0,1.79,-0.07,9.72,-0.36,352.47,325.52,0.23,0.23,161.0,175.0,175.0,-0.5909218,-2.436646,0.0252894,-0.9880108,0.02127548,-9.883734,3
360263337.0,1.79,-0.07,9.72,-0.36,352.47,325.52,0.23,0.23,161.0,175.0,175.0,-0.9679571,2.340445,0.06367781,-0.9708743,-0.00254974,-10.02998,3
360313317.0,1.695,-0.085,9.765,-0.375,352.36,325.42,0.23,0.23,161.0,175.0,175.0,1.840223,1.778386,-0.00629107,-1.014329,0.03270722,-9.981699,3
360363297.0,1.6,-0.1,9.81,-0.39,352.25,325.32,0.23,0.23,161.0,175.0,175.0,-2.484284,-0.09823361,-0.01542396,-1.029297,0.03309637,-10.08878,3
360363297.0,1.6,-0.1,9.81,-0.39,352.25,325.32,0.23,0.23,161.0,175.0,175.0,2.179553,-0.783389,-0.03056072,-1.130416,0.06859123,-9.858396,3
360413693.5,1.485,-0.11,9.84,-0.39,352.165,325.245,0.21,0.21,161.0,175.0,175.0,-1.261031,2.512024,-0.04481141,-1.165037,0.01214224,-9.936213,3
360464090.0,1.37,-0.12,9.87,-0.39,352.08,325.17,0.19,0.19,161.0,175.0,175.0,-0.08894433,-2.144615,-0.07365763,-1.237366,0.01842599,-9.7271,3
360464090.0,1.37,-0.12,9.87,-0.39,352.08,325.17,0.19,0.19,161.0,175.0,175.0,1.569185,2.391363,-0.09045773,-1.3053,-0.01423495,-9.809612,3
360514070.0,1.325,-0.13,9.885,-0.385,352.02,325.115,0.19,0.19,161.0,175.0,175.0,-2.26884,-0.2446867,-0.08970046,-1.238372,0.00712145,-9.689983,3
360564050.0,1.28,-0.14,9.9,-0.38,351.96,325.06,0.19,0.19,161.0,175.0,175.0,2.26284,-0.2838386,-0.09351104,-1.318924,0.01147898,-9.723801,3
360564050.0,1.28,-0.14,9.9,-0.38,351.96,325.06,0.19,0.19,161.0,175.0,175.0,-1.468285,2.411853,-0.09478121,-1.318399,0.03468689,-9.619566,3
360614030.0,1.285,-0.145,9.9,-0.37,351.925,325.03,0.18,0.18,161.0,175.0,175.0,0.05496174,-1.918888,-0.1031471,-1.31394,0.0577229,-9.657177,3
360664010.0,1.29,-0.15,9.9,-0.36,351.89,325.0,0.17,0.17,161.0,175.0,175.0,1.27682,2.493593,-0.1159415,-1.416847,-0.02701021,-9.653408,3
360664010.0,1.29,-0.15,9.9,-0.36,351.89,325.0,0.17,0.17,161.0,175.0,175.0,-2.238193,-0.320755,-0.1037275,-1.386907,-0.03972598,-9.547161,3
360713990.0,1.31,-0.155,9.9,-0.35,351.865,324.975,0.17,0.17,161.0,175.0,175.0,2.259048,0.04974648,-0.09558901,-1.427923,0.02264052,-9.703106,3
360763970.0,1.33,-0.16,9.9,-0.34,351.84,324.95,0.17,0.17,161.0,175.0,175.0,-1.635001,2.239433,-0.08331061,-1.468768,-0.00737211,-9.626713,3
360763970.0,1.33,-0.16,9.9,-0.34,351.84,324.95,0.17,0.17,161.0,175.0,175.0,0.3279732,-1.80181,-0.08351485,-1.435248,0.00665584,-9.594988,3
360813950.0,1.35,-0.16,9.9,-0.33,351.825,324.93,0.16,0.16,161.0,175.0,175.0,1.123782,2.688969,-0.08284093,-1.442639,-0.04398778,-9.656927,3
360863930.0,1.37,-0.16,9.9,-0.32,351.81,324.91,0.15,0.15,161.0,175.0,175.0,-2.077384,-0.5085887,-0.06608313,-1.39972,-0.02096811,-9.644591,3
360863930.0,1.37,-0.16,9.9,-0.32,351.81,324.91,0.15,0.15,161.0,175.0,175.0,2.331253,0.3161555,-0.0508944,-1.446557,0.02360245,-9.6568,3
360913910.0,1.375,-0.16,9.9,-0.31,351.8,324.895,0.15,0.15,161.0,175.5,175.5,-1.827265,1.888797,-0.02407752,-1.409471,-0.04775865,-9.654314,3
360963890.0,1.38,-0.16,9.9,-0.3,351.79,324.88,0.15,0.15,161.0,176.0,176.0,0.7750739,2.455175,-0.0161334,-1.369725,-0.04227258,-9.709385,3
360963890.0,1.38,-0.16,9.9,-0.3,351.79,324.88,0.15,0.15,161.0,176.0,176.0,0.6975735,-2.01031,-0.0197728,-1.345546,-0.05664032,-9.698222,3
361013870.0,1.385,-0.16,9.9,-0.29,351.775,324.87,0.14,0.14,160.5,176.0,176.0,-1.872186,-1.241433,-0.00314973,-1.332934,-0.09208602,-9.646596,3
361063850.0,1.39,-0.16,9.9,-0.28,351.76,324.86,0.13,0.13,160.0,176.0,176.0,2.3234,0.3100674,0.01038122,-1.261197,-0.03424083,-9.808869,3
361063850.0,1.39,-0.16,9.9,-0.28,351.76,324.86,0.13,0.13,160.0,176.0,176.0,-2.040218,1.299891,0.03690694,-1.293978,-0.02564364,-9.763825,3
361113830.0,1.39,-0.16,9.9,-0.275,351.745,324.845,0.13,0.13,160.0,176.0,176.0,0.889788,-2.101117,0.04401384,-1.192979,-0.04786694,-9.751116,3
361163810.0,1.39,-0.16,9.9,-0.27,351.73,324.83,0.13,0.13,160.0,176.0,176.0,0.5781273,2.408706,0.04582085,-1.224823,-0.03018638,-9.786977,3
361163810.0,1.39,-0.16,9.9,-0.27,351.73,324.83,0.13,0.13,160.0,176.0,176.0,-1.750738,-1.389403,0.05927159,-1.169099,-0.01381266,-9.710812,3
361213790.0,1.39,-0.16,9.9,-0.26,351.72,324.815,0.12,0.12,160.0,176.0,176.0,2.325536,0.4800484,0.07091066,-1.165886,-0.05578815,-9.821326,3
361263770.0,1.39,-0.16,9.9,-0.25,351.71,324.8,0.11,0.11,160.0,176.0,176.0,1.091338,-2.058787,0.1003245,-1.109477,-0.02431544,-9.850859,3
361263770.0,1.39,-0.16,9.9,-0.25,351.71,324.8,0.11,0.11,160.0,176.0,176.0,-2.121385,1.197471,0.09652333,-1.166374,-0.00313698,-9.800924,3
361313750.0,1.39,-0.16,9.9,-0.245,351.69,324.785,0.11,0.11,160.0,176.0,176.0,0.3540809,2.467612,0.09624132,-1.076922,-0.0029899,-9.819345,3
361363730.0,1.39,-0.16,9.9,-0.24,351.67,324.77,0.11,0.11,160.0,176.0,176.0,-1.449552,-1.784917,0.09434322,-1.091872,-0.04790976,-9.767447,3
361363730.0,1.39,-0.16,9.9,-0.24,351.67,324.77,0.11,0.11,160.0,176.0,176.0,2.327349,0.6941074,0.1102968,-1.055754,0.02228037,-9.825369,3
361413710.0,1.39,-0.16,9.9,-0.23,351.655,324.75,0.105,0.105,160.0,176.0,176.0,-2.283901,0.881905,0.118328,-1.029343,-0.01666609,-9.824303,3
361463690.0,1.39,-0.16,9.9,-0.22,351.64,324.73,0.1,0.1,160.0,176.0,176.0,-0.1424368,2.42828,0.116874,-0.9730265,-0.01687383,-9.862289,3
361463690.0,1.39,-0.16,9.9,-0.22,351.64,324.73,0.1,0.1,160.0,176.0,176.0,1.322865,-1.852515,0.1176029,-0.9870331,-0.04570739,-9.79627,3
361513670.0,1.385,-0.16,9.9,-0.215,351.62,324.71,0.1,0.1,160.0,176.0,176.0,-1.305405,-1.911076,0.1012862,-0.9420151,-0.03584635,-9.855022,3
361563650.0,1.38,-0.16,9.9,-0.21,351.6,324.69,0.1,0.1,160.0,176.0,176.0,-2.293029,0.6894878,0.1142695,-0.8983976,-0.04121899,-9.82337,3
361563650.0,1.38,-0.16,9.9,-0.21,351.6,324.69,0.1,0.1,160.0,176.0,176.0,2.221066,0.9462602,0.1085348,-0.9397639,0.05404737,-9.901334,3
361613630.0,1.38,-0.16,9.9,-0.205,351.585,324.675,0.095,0.095,160.0,176.0,176.0,1.497862,-1.742491,0.1107874,-0.8744961,-0.03248797,-9.89572,3
361663610.0,1.38,-0.16,9.9,-0.2,351.57,324.66,0.09,0.09,160.0,176.0,176.0,-1.122604,-2.036516,0.08447129,-0.7473328,0.00360809,-9.884596,3
361663610.0,1.38,-0.16,9.9,-0.2,351.57,324.66,0.09,0.09,160.0,176.0,176.0,-0.2745995,2.391961,0.1045859,-0.8937836,0.06802899,-9.864355,3
361713590.0,1.375,-0.16,9.9,-0.19,351.55,324.64,0.09,0.09,160.0,176.0,176.0,2.134682,1.079158,0.08671617,-0.8453565,0.03813563,-9.890274,3
361763570.0,1.37,-0.16,9.9,-0.18,351.53,324.62,0.09,0.09,160.0,176.0,176.0,-2.342758,0.3696857,0.08780174,-0.7980358,0.01936655,-9.837598,3
361763570.0,1.37,-0.16,9.9,-0.18,351.53,324.62,0.09,0.09,160.0,176.0,176.0,1.727823,-1.604372,0.08604528,-0.7557048,-0.00857918,-9.939152,3
361813550.0,1.37,-0.16,9.9,-0.175,351.51,324.6,0.09,0.09,160.0,176.0,176.0,-0.5846043,2.350455,0.07752548,-0.7640353,0.02951475,-9.862307,3
361863530.0,1.37,-0.16,9.9,-0.17,351.49,324.58,0.09,0.09,160.0,176.0,176.0,-0.8346972,-2.227863,0.05295258,-0.716794,-0.02215361,-9.892578,3
361863530.0,1.37,-0.16,9.9,-0.17,351.49,324.58,0.09,0.09,160.0,176.0,176.0,1.913833,1.403245,0.0530261,-0.7007235,0.05685876,-9.920869,3
361913510.0,1.375,-0.155,9.9,-0.165,351.47,324.56,0.09,0.09,159.5,176.5,176.5,-2.387671,-0.06087974,0.052241,-0.6679093,-0.04450883,-9.853473,3
361963490.0,1.38,-0.15,9.9,-0.16,351.45,324.54,0.09,0.09,159.0,177.0,177.0,1.907461,-1.286065,0.05334307,-0.6071337,0.01977499,-9.920462,3
361963490.0,1.38,-0.15,9.9,-0.16,351.45,324.54,0.09,0.09,159.0,177.0,177.0,-0.8825791,2.24128,0.05009117,-0.6451059,-0.0433271,-9.834213,3
362013470.0,1.37,-0.15,9.9,-0.155,351.43,324.52,0.085,0.085,159.0,177.0,177.0,-0.5833716,-2.283845,0.02762895,-0.5891578,0.04636264,-9.8981,3
362063450.0,1.36,-0.15,9.9,-0.15,351.41,324.5,0.08,0.08,159.0,177.0,177.0,1.807582,1.541691,0.02536364,-0.6047062,0.04363767,-9.961465,3
362063450.0,1.36,-0.15,9.9,-0.15,351.41,324.5,0.08,0.08,159.0,177.0,177.0,-2.362079,-0.1977506,0.02551042,-0.5933682,-0.0546681,-9.909899,3
362113430.0,1.36,-0.15,9.9,-0.15,351.39,324.48,0.08,0.08,159.0,177.0,177.0,2.037315,-1.138063,0.02898357,-0.5623186,0.0179906,-9.954593,3
362163410.0,1.36,-0.15,9.9,-0.15,351.37,324.46,0.08,0.08,159.0,177.0,177.0,-0.348713,-2.360232,0.00777607,-0.5358521,0.02885631,-9.849364,3
362163410.0,1.36,-0.15,9.9,-0.15,351.37,324.46,0.08,0.08,159.0,177.0,177.0,-1.048817,2.182468,0.02814939,-0.561563,-0.01582086,-9.844544,3
362213390.0,1.355,-0.15,9.9,-0.145,351.35,324.445,0.075,0.075,159.0,177.0,177.0,1.630451,1.745381,0.00736497,-0.5081047,0.01051667,-9.952583,3
362263370.0,1.35,-0.15,9.9,-0.14,351.33,324.43,0.07,0.07,159.0,177.0,177.0,-2.339088,-0.4992747,0.00991509,-0.5036899,-0.00869974,-9.868105,3
362263370.0,1.35,-0.15,9.9,-0.14,351.33,324.43,0.07,0.07,159.0,177.0,177.0,2.157287,-0.9236864,0.01641204,-0.4933362,0.03460233,-9.971951,3
362313350.0,1.35,-0.145,9.9,-0.135,351.31,324.41,0.07,0.07,159.0,177.0,177.0,-1.280861,2.011005,0.02085279,-0.4792359,-0.01783476,-9.880737,3
362363330.0,1.35,-0.14,9.9,-0.13,351.29,324.39,0.07,0.07,159.0,177.0,177.0,1.369429,1.875737,0.00471171,-0.4396685,0.026084,-9.839243,3
362363330.0,1.35,-0.14,9.9,-0.13,351.29,324.39,0.07,0.07,159.0,177.0,177.0,-0.1303372,-2.402593,0.00525243,-0.4555228,0.02775585,-9.931976,3
362413310.0,1.345,-0.14,9.9,-0.125,351.275,324.37,0.07,0.07,159.0,177.0,177.0,-2.272474,-0.8499307,0.00434895,-0.4398272,0.00073307,-9.89328,3
362463290.0,1.34,-0.14,9.9,-0.12,351.26,324.35,0.07,0.07,159.0,177.0,177.0,2.33221,-0.5806465,0.01634538,-0.4042339,-0.0194309,-9.97409,3
362463290.0,1.34,-0.14,9.9,-0.12,351.26,324.35,0.07,0.07,159.0,177.0,177.0,-1.594362,1.79127,0.02537059,-0.4004252,-0.00866527,-9.866249,3
362513686.5,1.34,-0.14,9.9,-0.12,351.24,324.33,0.07,0.07,159.0,177.0,177.0,0.3106532,-2.316736,0.01250978,-0.3692176,0.01511141,-9.883705,3
362564083.0,1.34,-0.14,9.9,-0.12,351.22,324.31,0.07,0.07,159.0,177.0,177.0,1.096835,2.085983,0.01216395,-0.3627099,-0.0176566,-9.906482,3
362564083.0,1.34,-0.14,9.9,-0.12,351.22,324.31,0.07,0.07,159.0,177.0,177.0,-2.109345,-1.071354,0.01434592,-0.378951,0.00490432,-9.863353,3
362614063.0,1.335,-0.135,9.905,-0.115,351.2,324.29,0.065,0.065,159.0,177.0,177.0,2.328372,-0.330745,0.02510058,-0.2976315,0.01656302,-9.916698,3
362664043.0,1.33,-0.13,9.91,-0.11,351.18,324.27,0.06,0.06,159.0,177.0,177.0,-1.690736,1.654192,0.03808545,-0.3094608,0.01057898,-9.845862,3
362664043.0,1.33,-0.13,9.91,-0.11,351.18,324.27,0.06,0.06,159.0,177.0,177.0,0.3775866,-2.33998,0.02745207,-0.3134003,-0.0231507,-9.891541,3
362714023.0,1.325,-0.13,9.91,-0.105,351.16,324.25,0.06,0.06,159.0,177.0,177.0,0.9396246,2.121661,0.02706064,-0.3375582,0.00158735,-9.873251,3
362764003.0,1.32,-0.13,9.91,-0.1,351.14,324.23,0.06,0.06,159.0,177.0,177.0,-2.044641,-1.252545,0.02714892,-0.2556449,-0.00337181,-9.842504,3
362764003.0,1.32,-0.13,9.91,-0.1,351.14,324.23,0.06,0.06,159.0,177.0,177.0,2.391868,-0.1271245,0.04007251,-0.3264149,0.00489246,-9.90402,3
362813983.0,1.31,-0.13,9.91,-0.1,351.12,324.21,0.06,0.06,158.5,177.0,177.0,-1.862954,1.485611,0.05266964,-0.2985756,-0.0268099,-9.812629,3
362863963.0,1.3,-0.13,9.91,-0.1,351.1,324.19,0.06,0.06,158.0,177.0,177.0,0.6378555,2.261565,0.04301418,-0.219234,0.00316478,-9.855238,3
362863963.0,1.3,-0.13,9.91,-0.1,351.1,324.19,0.06,0.06,158.0,177.0,177.0,0.6846927,-2.290667,0.04522974,-0.2183402,-0.04896628,-9.888258,3
362913943.0,1.295,-0.125,9.91,-0.1,351.08,324.17,0.06,0.06,158.0,177.5,177.5,-1.851383,-1.545349,0.04050457,-0.2558667,-0.02830814,-9.781786,3
362963923.0,1.29,-0.12,9.91,-0.1,351.06,324.15,0.06,0.06,158.0,178.0,178.0,2.406309,0.2326418,0.0506418,-0.2514737,0.05452319,-9.826115,3
362963923.0,1.29,-0.12,9.91,-0.1,351.06,324.15,0.06,0.06,158.0,178.0,178.0,-2.089736,1.206379,0.06235428,-0.1816805,0.01596697,-9.826233,3
363013903.0,1.285,-0.115,9.91,-0.095,351.04,324.13,0.06,0.06,158.0,178.0,178.0,0.9461451,-2.18961,0.05774712,-0.1760889,-0.01829415,-9.865481,3
363063883.0,1.28,-0.11,9.91,-0.09,351.02,324.11,0.06,0.06,158.0,178.0,178.0,-1.704869,-1.765168,0.05128074,-0.1836236,-0.03836117,-9.862153,3
363063883.0,1.28,-0.11,9.91,-0.09,351.02,324.11,0.06,0.06,158.0,178.0,178.0,0.2200951,2.296503,0.05636635,-0.2503927,0.0130802,-9.864624,3
363113863.0,1.275,-0.11,9.91,-0.09,351.0,324.09,0.06,0.06,158.0,178.0,178.0,2.331018,0.4270532,0.0633454,-0.2147251,0.05498489,-9.884553,3
363163843.0,1.27,-0.11,9.91,-0.09,350.98,324.07,0.06,0.06,158.0,178.0,178.0,1.353262,-2.003879,0.07115884,-0.1509306,0.03007501,-9.854873,3
363163843.0,1.27,-0.11,9.91,-0.09,350.98,324.07,0.06,0.06,158.0,178.0,178.0,-2.112017,0.8513767,0.06736806,-0.2555634,-0.0538432,-9.841214,3
363213823.0,1.265,-0.105,9.915,-0.09,350.96,324.055,0.055,0.055,158.0,178.0,178.0,0.09029831,2.380516,0.05892184,-0.2077772,-0.00777239,-9.83685,3
363263803.0,1.26,-0.1,9.92,-0.09,350.94,324.04,0.05,0.05,158.0,178.0,178.0,-1.440026,-1.994721,0.05329527,-0.1408888,-0.00206325,-9.875479,3
363263803.0,1.26,-0.1,9.92,-0.09,350.94,324.04,0.05,0.05,158.0,178.0,178.0,2.385622,0.5293814,0.05849113,-0.1581424,-0.01319001,-9.974945,3
363313783.0,1.255,-0.1,9.92,-0.085,350.92,324.02,0.05,0.05,158.0,178.0,178.0,-2.227642,0.3050852,0.05811263,-0.1708994,0.02136566,-9.912436,3
363363763.0,1.25,-0.1,9.92,-0.08,350.9,324.0,0.05,0.05,158.0,178.0,178.0,-0.3020366,1.933642,0.03969505,-0.1601436,0.02505689,-9.967955,3
363363763.0,1.25,-0.1,9.92,-0.08,350.9,324.0,0.05,0.05,158.0,178.0,178.0,1.657521,-2.271878,0.06172319,-0.08881523,-0.01707911,-9.967338,3
363413743.0,1.24,-0.095,9.92,-0.08,350.88,323.98,0.05,0.05,158.0,178.0,178.0,-1.129636,-2.710236,0.02449994,-0.09240577,-0.04296216,-9.927057,3
363463723.0,1.23,-0.09,9.92,-0.08,350.86,323.96,0.05,0.05,158.0,178.0,178.0,-2.38751,-0.3377303,0.0057192,-0.1479841,-0.04770568,-9.960018,3
363463723.0,1.23,-0.09,9.92,-0.08,350.86,323.96,0.05,0.05,158.0,178.0,178.0,2.061794,0.4378048,0.01791067,-0.1135211,0.01264251,-9.90177,3
363513703.0,1.225,-0.09,9.92,-0.08,350.84,323.94,0.05,0.05,158.0,178.0,178.0,1.69735,-2.235087,-0.00066992,-0.1487295,0.00064406,-9.884766,3
363563683.0,1.22,-0.09,9.92,-0.08,350.82,323.92,0.05,0.05,158.0,178.0,178.0,-1.077425,-2.829936,-0.05673923,-0.1313163,0.01083685,-9.887247,3
363563683.0,1.22,-0.09,9.92,-0.08,350.82,323.92,0.05,0.05,158.0,178.0,178.0,-0.6641265,1.818509,-0.02902033,-0.1740074,-0.02892123,-9.972767,3
363613663.0,1.215,-0.085,9.92,-0.08,350.8,323.9,0.05,0.05,157.5,178.0,178.0,1.948413,0.6502719,-0.07028757,-0.1699539,0.03288154,-9.905538,3
363663643.0,1.21,-0.08,9.92,-0.08,350.78,323.88,0.05,0.05,157.0,178.0,178.0,1.917755,-2.048621,-0.08674883,-0.1705831,0.01314405,-9.89519,3
363663643.0,1.21,-0.08,9.92,-0.08,350.78,323.88,0.05,0.05,157.0,178.0,178.0,-2.466517,-0.5046767,-0.0849954,-0.2012003,-0.03452349,-10.07174,3
363713623.0,1.205,-0.08,9.92,-0.08,350.76,323.86,0.05,0.05,157.0,178.0,178.0,-0.810964,1.844723,-0.1074743,-0.305025,0.02603417,-10.13167,3
363763603.0,1.2,-0.08,9.92,-0.08,350.74,323.84,0.05,0.05,157.0,178.0,178.0,-0.7589174,-2.907674,-0.1248196,-0.2432549,-0.02123122,-10.10863,3
363763603.0,1.2,-0.08,9.92,-0.08,350.74,323.84,0.05,0.05,157.0,178.0,178.0,1.846277,1.096243,-0.1307656,-0.2840364,-0.01504311,-10.03959,3
363813583.0,1.19,-0.075,9.92,-0.08,350.72,323.82,0.05,0.05,157.0,178.5,178.5,-2.48387,-0.5708609,-0.1334084,-0.3157875,-0.03184161,-10.29472,3
363863563.0,1.18,-0.07,9.92,-0.08,350.7,323.8,0.05,0.05,157.0,179.0,179.0,2.165909,-1.447822,-0.1191136,-0.3685843,0.00815161,-10.05306,3
363863563.0,1.18,-0.07,9.92,-0.08,350.7,323.8,0.05,0.05,157.0,179.0,179.0,-1.084306,2.097847,-0.1268854,-0.4092745,-0.01818595,-10.27238,3
363913543.0,1.175,-0.065,9.925,-0.075,350.68,323.78,0.05,0.05,157.0,179.0,179.0,-0.3043394,-2.609427,-0.1300481,-0.4258611,-0.01020832,-10.10035,3
363963523.0,1.17,-0.06,9.93,-0.07,350.66,323.76,0.05,0.05,157.0,179.0,179.0,-2.386362,-0.700961,-0.125687,-0.4725565,-0.03196671,-10.2828,3
363963523.0,1.17,-0.06,9.93,-0.07,350.66,323.76,0.05,0.05,157.0,179.0,179.0,1.673625,1.777488,-0.1307822,-0.500478,-0.02459734,-10.09691,3
364013503.0,1.16,-0.06,9.93,-0.07,350.64,323.74,0.045,0.045,157.0,179.0,179.0,2.350639,-0.9560198,-0.09986856,-0.5356619,-0.01362268,-10.04704,3
364063483.0,1.15,-0.06,9.93,-0.07,350.62,323.72,0.04,0.04,157.0,179.0,179.0,-0.09954044,-2.592597,-0.09339236,-0.5662264,-0.04205584,-10.05435,3
364063483.0,1.15,-0.06,9.93,-0.07,350.62,323.72,0.04,0.04,157.0,179.0,179.0,-1.327933,2.004474,-0.09608628,-0.6069237,-0.05702967,-10.18848,3
364113463.0,1.14,-0.055,9.93,-0.07,350.6,323.7,0.04,0.04,157.0,179.0,179.0,1.493243,1.813049,-0.08398922,-0.6863462,-0.01338057,-10.04997,3
364163443.0,1.13,-0.05,9.93,-0.07,350.58,323.68,0.04,0.04,157.0,179.0,179.0,2.381001,-0.7803853,-0.04077071,-0.7334505,-0.01774747,-10.02612,3
364163443.0,1.13,-0.05,9.93,-0.07,350.58,323.68,0.04,0.04,157.0,179.0,179.0,-2.390082,-0.9058824,-0.07292983,-0.6645728,-0.08294567,-10.23535,3
364213423.0,1.12,-0.05,9.93,-0.07,350.555,323.66,0.04,0.04,157.0,179.0,179.0,-1.55337,1.843264,-0.02877644,-0.7672837,-0.02785678,-10.14951,3
364263403.0,1.11,-0.05,9.93,-0.07,350.53,323.64,0.04,0.04,157.0,179.0,179.0,1.239002,2.035607,-0.00921743,-0.8867257,-0.0189826,-10.03323,3
364263403.0,1.11,-0.05,9.93,-0.07,350.53,323.64,0.04,0.04,157.0,179.0,179.0,0.152598,-2.601853,-0.01809797,-0.7520751,-0.0385477,-10.06664,3
364313383.0,1.105,-0.045,9.93,-0.07,350.51,323.615,0.04,0.04,157.0,179.0,179.0,-2.320333,-1.176429,0.00329687,-0.8838077,-0.07557505,-10.20394,3
364363363.0,1.1,-0.04,9.93,-0.07,350.49,323.59,0.04,0.04,157.0,179.0,179.0,2.46692,-0.4481904,0.03592006,-0.9039608,-0.02325526,-9.942148,3
364363363.0,1.1,-0.04,9.93,-0.07,350.49,323.59,0.04,0.04,157.0,179.0,179.0,-1.882603,1.739143,0.04641452,-0.9915941,-0.1060119,-10.15204,3
364413343.0,1.09,-0.035,9.935,-0.07,350.47,323.57,0.04,0.04,156.5,179.0,179.0,0.4984874,-2.315898,0.05449219,-0.9971575,-0.02553242,-9.949781,3
364463323.0,1.08,-0.03,9.94,-0.07,350.45,323.55,0.04,0.04,156.0,179.0,179.0,0.8568153,2.534838,0.05821932,-1.036801,-0.05365007,-10.02833,3
364463323.0,1.08,-0.03,9.94,-0.07,350.45,323.55,0.04,0.04,156.0,179.0,179.0,-2.126093,-1.139847,0.06542254,-1.099228,0.00044251,-9.958151,3
364513303.0,1.07,-0.03,9.94,-0.07,350.43,323.53,0.04,0.04,156.0,179.0,179.0,2.440634,0.3544908,0.08960585,-1.148501,-0.07994278,-9.917694,3
364563283.0,1.06,-0.03,9.94,-0.07,350.41,323.51,0.04,0.04,156.0,179.0,179.0,-2.043178,1.758941,0.09969163,-1.175235,-0.03726107,-9.889158,3
364563283.0,1.06,-0.03,9.94,-0.07,350.41,323.51,0.04,0.04,156.0,179.0,179.0,0.8302624,-1.888294,0.1052298,-1.215759,-0.05794683,-9.804391,3
364613679.5,1.05,-0.025,9.94,-0.07,350.39,323.49,0.04,0.04,156.0,179.0,179.0,0.5608138,2.798022,0.1048719,-1.297152,-0.0328277,-9.801045,3
364664076.0,1.04,-0.02,9.94,-0.07,350.37,323.47,0.04,0.04,156.0,179.0,179.0,-1.817117,-1.114361,0.09765945,-1.26773,-0.03746178,-9.698019,3
364664076.0,1.04,-0.02,9.94,-0.07,350.37,323.47,0.04,0.04,156.0,179.0,179.0,2.402731,0.7591315,0.1159538,-1.293078,-0.00972502,-9.792736,3
364714056.0,1.03,-0.015,9.94,-0.075,350.345,323.45,0.04,0.04,156.0,179.5,179.5,-2.074751,1.623021,0.120392,-1.357977,-0.05525188,-9.690886,3
364764036.0,1.02,-0.01,9.94,-0.08,350.32,323.43,0.04,0.04,156.0,180.0,180.0,0.3068971,2.864493,0.1116064,-1.379574,-0.00376463,-9.708568,3
364764036.0,1.02,-0.01,9.94,-0.08,350.32,323.43,0.04,0.04,156.0,180.0,180.0,1.079326,-1.628037,0.120709,-1.31862,-0.01657181,-9.667996,3
364814016.0,1.015,-0.01,9.94,-0.08,350.3,323.41,0.04,0.04,156.0,180.0,180.0,-1.497457,-1.277319,0.1061098,-1.348554,-0.03483515,-9.562532,3
364863996.0,1.01,-0.01,9.94,-0.08,350.28,323.39,0.04,0.04,156.0,180.0,180.0,-2.190845,1.267278,0.1124207,-1.371741,-0.04667813,-9.652191,3
364863996.0,1.01,-0.01,9.94,-0.08,350.28,323.39,0.04,0.04,156.0,180.0,180.0,2.306932,1.20629,0.1053124,-1.403146,-0.02463581,-9.731447,3
364913976.0,1.005,-0.005,9.945,-0.08,350.255,323.365,0.04,0.04,156.0,180.0,180.0,1.414789,-1.387953,0.1139288,-1.432273,-0.00925548,-9.677174,3
364963956.0,1.0,0.0,9.95,-0.08,350.23,323.34,0.04,0.04,156.0,180.0,180.0,-1.238954,-1.485825,0.08650374,-1.332636,0.00227952,-9.661813,3
364963956.0,1.0,0.0,9.95,-0.08,350.23,323.34,0.04,0.04,156.0,180.0,180.0,0.04312767,2.811426,0.09259758,-1.3796,0.02254798,-9.717935,3
365013936.0,0.99,0.0,9.95,-0.08,350.21,323.32,0.04,0.04,156.0,180.0,180.0,2.235902,1.173379,0.07861765,-1.342689,0.02804528,-9.815422,3
365063916.0,0.98,0.0,9.95,-0.08,350.19,323.3,0.04,0.04,156.0,180.0,180.0,1.526102,-1.661087,0.0813721,-1.229532,0.05263125,-9.755268,3
365063916.0,0.98,0.0,9.95,-0.08,350.19,323.3,0.04,0.04,156.0,180.0,180.0,-2.216042,0.8369798,0.08353477,-1.308584,0.01804421,-9.734737,3
365113896.0,0.97,0.0,9.95,-0.08,350.17,323.28,0.04,0.04,155.5,180.0,180.0,-0.1794473,2.513209,0.06018213,-1.317449,0.06938712,-9.768402,3
365163876.0,0.96,0.0,9.95,-0.08,350.15,323.26,0.04,0.04,155.0,180.0,180.0,-1.098875,-1.935498,0.05001114,-1.220724,0.03981914,-9.739901,3
365163876.0,0.96,0.0,9.95,-0.08,350.15,323.26,0.04,0.04,155.0,180.0,180.0,2.120568,1.156553,0.04269639,-1.210523,0.0565917,-9.826576,3
365213856.0,0.955,0.0,9.95,-0.08,350.125,323.235,0.04,0.04,155.0,180.0,180.0,-2.34821,0.4128471,0.04520971,-1.211926,-0.01988298,-9.719877,3
365263836.0,0.95,0.0,9.95,-0.08,350.1,323.21,0.04,0.04,155.0,180.0,180.0,1.714533,-1.558114,0.04748726,-1.14712,0.04704969,-9.831108,3
365263836.0,0.95,0.0,9.95,-0.08,350.1,323.21,0.04,0.04,155.0,180.0,180.0,-0.493256,2.41466,0.0309744,-1.170072,0.02037763,-9.772642,3
365313816.0,0.94,0.005,9.95,-0.085,350.08,323.19,0.04,0.04,155.0,180.0,180.0,-0.820536,-2.068371,0.0220165,-1.074078,0.00486527,-9.809507,3
365363796.0,0.93,0.01,9.95,-0.09,350.06,323.17,0.04,0.04,155.0,180.0,180.0,-2.425069,0.04473373,0.01909191,-1.065842,-0.02307984,-9.817953,3
365363796.0,0.93,0.01,9.95,-0.09,350.06,323.17,0.04,0.04,155.0,180.0,180.0,1.908456,1.495652,0.00949344,-1.145211,-0.00912607,-9.846807,3
365413776.0,0.925,0.015,9.95,-0.09,350.035,323.145,0.035,0.035,155.0,180.0,180.0,2.00012,-1.315995,0.01895473,-1.04935,0.00355273,-9.837715,3
365463756.0,0.92,0.02,9.95,-0.09,350.01,323.12,0.03,0.03,155.0,180.0,180.0,-0.7984489,2.262439,0.00504146,-1.033589,0.0287004,-9.807249,3
365463756.0,0.92,0.02,9.95,-0.09,350.01,323.12,0.03,0.03,155.0,180.0,180.0,-0.5165784,-2.211123,-0.00096834,-0.9961774,0.0212455,-9.883678,3
365513736.0,0.91,0.02,9.955,-0.09,349.985,323.1,0.03,0.03,155.0,180.5,180.5,1.805955,1.611032,-0.00762672,-0.975202,0.04275804,-9.91466,3
365563716.0,0.9,0.02,9.96,-0.09,349.96,323.08,0.03,0.03,155.0,181.0,181.0,-2.337895,-0.1872551,-0.00145939,-0.9516293,-0.03904136,-9.746819,3
365563716.0,0.9,0.02,9.96,-0.09,349.96,323.08,0.03,0.03,155.0,181.0,181.0,2.080431,-1.164206,0.01036334,-0.9317169,0.01962474,-9.876599,3
365613696.0,0.89,0.025,9.96,-0.09,349.94,323.055,0.03,0.03,155.0,181.0,181.0,-0.9229439,2.201882,0.00243446,-0.9491192,-0.02568303,-9.819629,3
365663676.0,0.88,0.03,9.96,-0.09,349.92,323.03,0.03,0.03,155.0,181.0,181.0,-0.3032674,-2.245844,-0.00057985,-0.8495638,-0.01442671,-9.854113,3
365663676.0,0.88,0.03,9.96,-0.09,349.92,323.03,0.03,0.03,155.0,181.0,181.0,1.664447,1.785083,-0.00756582,-0.8549742,0.00838193,-9.913896,3
365713656.0,0.865,0.03,9.96,-0.09,349.895,323.01,0.03,0.03,155.0,181.0,181.0,-2.357412,-0.444892,0.00526085,-0.8687525,-0.04147352,-9.831576,3
365763636.0,0.85,0.03,9.96,-0.09,349.87,322.99,0.03,0.03,155.0,181.0,181.0,-1.124492,2.084832,0.01658024,-0.8168328,0.00742434,-9.754909,3
365763636.0,0.85,0.03,9.96,-0.09,349.87,322.99,0.03,0.03,155.0,181.0,181.0,2.194888,-0.9924953,0.01713846,-0.8521084,0.01406461,-9.934771,3
365813616.0,0.845,0.035,9.96,-0.09,349.845,322.965,0.03,0.03,154.5,181.0,181.0,-0.03218067,-2.347363,0.01651863,-0.7349939,-0.02160252,-9.87562,3
365863596.0,0.84,0.04,9.96,-0.09,349.82,322.94,0.03,0.03,154.0,181.0,181.0,1.446577,1.978374,0.00562635,-0.7788494,-0.02515902,-9.913458,3
365863596.0,0.84,0.04,9.96,-0.09,349.82,322.94,0.03,0.03,154.0,181.0,181.0,-2.260839,-0.7662748,0.01886029,-0.7351426,-0.03026276,-9.806187,3
365913576.0,0.83,0.045,9.96,-0.095,349.8,322.92,0.03,0.03,154.0,181.0,181.0,2.330389,-0.5881978,0.02945717,-0.6435025,0.01734029,-9.939106,3
365963556.0,0.82,0.05,9.96,-0.1,349.78,322.9,0.03,0.03,154.0,181.0,181.0,0.3005176,-2.285883,0.03587693,-0.6339588,0.00767016,-9.8693,3
365963556.0,0.82,0.05,9.96,-0.1,349.78,322.9,0.03,0.03,154.0,181.0,181.0,-1.518173,1.806218,0.03407191,-0.6974436,-0.02425623,-9.868201,3
366013536.0,0.815,0.05,9.96,-0.1,349.755,322.875,0.03,0.03,154.0,181.0,181.0,1.137493,2.148431,0.02504016,-0.6893587,-0.00321751,-9.918154,3
366063516.0,0.81,0.05,9.96,-0.1,349.73,322.85,0.03,0.03,154.0,181.0,181.0,2.393602,-0.4479116,0.0490619,-0.6406304,0.00947134,-9.961185,3
366063516.0,0.81,0.05,9.96,-0.1,349.73,322.85,0.03,0.03,154.0,181.0,181.0,-2.180131,-1.011212,0.03502933,-0.6339909,-0.05124737,-9.838211,3
366113496.0,0.805,0.055,9.96,-0.1,349.705,322.825,0.03,0.03,154.0,181.0,181.0,-1.57598,1.680193,0.0530079,-0.5677091,0.01681443,-9.825746,3
366163476.0,0.8,0.06,9.96,-0.1,349.68,322.8,0.03,0.03,154.0,181.0,181.0,0.9945725,2.210812,0.04331218,-0.5772879,-0.02873149,-9.882817,3
366163476.0,0.8,0.06,9.96,-0.1,349.68,322.8,0.03,0.03,154.0,181.0,181.0,0.4968514,-2.341157,0.05674187,-0.5490773,0.00793233,-9.923667,3
366213456.0,0.785,0.06,9.96,-0.1,349.655,322.78,0.03,0.03,154.0,181.0,181.0,-2.062573,-1.233743,0.05013755,-0.5234681,-0.00787101,-9.851101,3
366263436.0,0.77,0.06,9.96,-0.1,349.63,322.76,0.03,0.03,154.0,181.0,181.0,2.412309,-0.1700536,0.06044805,-0.4983355,0.01248885,-9.921343,3
366263436.0,0.77,0.06,9.96,-0.1,349.63,322.76,0.03,0.03,154.0,181.0,181.0,-1.80217,1.46105,0.06480865,-0.5378012,0.0182451,-9.808176,3
366313416.0,0.76,0.065,9.965,-0.105,349.605,322.735,0.03,0.03,154.0,181.5,181.5,0.7521764,-2.263716,0.0669935,-0.4510361,0.05212111,-9.890003,3
366363396.0,0.75,0.07,9.97,-0.11,349.58,322.71,0.03,0.03,154.0,182.0,182.0,-1.867314,-1.448519,0.05530129,-0.4478787,0.03109588,-9.867086,3
366363396.0,0.75,0.07,9.97,-0.11,349.58,322.71,0.03,0.03,154.0,182.0,182.0,0.7112456,2.297108,0.05133652,-0.4603011,0.00203337,-9.918941,3
366413376.0,0.74,0.07,9.97,-0.11,349.555,322.685,0.03,0.03,153.5,182.0,182.0,2.398882,0.2039214,0.05976205,-0.4647966,0.00636546,-9.928555,3
366463356.0,0.73,0.07,9.97,-0.11,349.53,322.66,0.03,0.03,153.0,182.0,182.0,-2.037635,1.18862,0.06726708,-0.4586518,-0.0487363,-9.794606,3
366463356.0,0.73,0.07,9.97,-0.11,349.53,322.66,0.03,0.03,153.0,182.0,182.0,1.07926,-2.178398,0.07134109,-0.3927571,-0.00062466,-9.90966,3
366513336.0,0.72,0.075,9.97,-0.11,349.505,322.635,0.03,0.03,153.0,182.0,182.0,0.3444758,2.307659,0.05299993,-0.4780603,-0.01637838,-9.879988,3
366563316.0,0.71,0.08,9.97,-0.11,349.48,322.61,0.03,0.03,153.0,182.0,182.0,2.311966,0.5861446,0.0491856,-0.3683342,0.05150742,-9.886778,3
366563316.0,0.71,0.08,9.97,-0.11,349.48,322.61,0.03,0.03,153.0,182.0,182.0,-1.606757,-1.774738,0.04701648,-0.3231989,0.0500331,-9.842675,3
366613296.0,0.705,0.08,9.97,-0.11,349.455,322.585,0.03,0.03,153.0,182.0,182.0,-2.230279,0.8575542,0.06411967,-0.395982,0.01075093,-9.849148,3
366663276.0,0.7,0.08,9.97,-0.11,349.43,322.56,0.03,0.03,153.0,182.0,182.0,-0.02871378,2.390404,0.05005202,-0.3796726,-0.02456572,-9.881475,3
366663276.0,0.7,0.08,9.97,-0.11,349.43,322.56,0.03,0.03,153.0,182.0,182.0,1.35639,-1.949098,0.05699233,-0.3640463,-0.00516297,-9.918752,3
366713672.5,0.69,0.085,9.97,-0.115,349.405,322.535,0.03,0.03,153.0,182.0,182.0,-1.319198,-1.94528,0.04258636,-0.3255184,-0.02062454,-9.816851,3
366764069.0,0.68,0.09,9.97,-0.12,349.38,322.51,0.03,0.03,153.0,182.0,182.0,-2.321263,0.5548585,0.05493978,-0.3240469,-0.04339371,-9.852481,3
366764069.0,0.68,0.09,9.97,-0.12,349.38,322.51,0.03,0.03,153.0,182.0,182.0,2.213068,0.9081835,0.04073112,-0.3205689,0.02260547,-9.873667,3
366814049.0,0.67,0.09,9.97,-0.12,349.355,322.485,0.03,0.03,153.0,182.0,182.0,1.560268,-1.740087,0.05156679,-0.2781749,-0.00600178,-9.894356,3
366864029.0,0.66,0.09,9.97,-0.12,349.33,322.46,0.03,0.03,153.0,182.0,182.0,-0.4216107,2.348822,0.04863695,-0.3370234,-0.00293742,-9.865465,3
366864029.0,0.66,0.09,9.97,-0.12,349.33,322.46,0.03,0.03,153.0,182.0,182.0,-1.012127,-2.14945,0.03738765,-0.2388567,0.02116928,-9.827294,3
366914009.0,0.655,0.095,9.97,-0.12,349.305,322.435,0.03,0.03,153.0,182.0,182.0,2.054817,1.161012,0.03006197,-0.295229,0.02187092,-9.80736,3
366963989.0,0.65,0.1,9.97,-0.12,349.28,322.41,0.03,0.03,153.0,182.0,182.0,1.771631,-1.530349,0.04458182,-0.2218621,0.00896273,-9.878741,3
366963989.0,0.65,0.1,9.97,-0.12,349.28,322.41,0.03,0.03,153.0,182.0,182.0,-2.364959,0.2213217,0.04666143,-0.2008353,0.01383161,-9.840251,3
367013969.0,0.64,0.1,9.975,-0.12,349.255,322.385,0.03,0.03,152.5,182.5,182.5,-0.5845161,2.299092,0.04069329,-0.2931085,0.00636992,-9.833073,3
367063949.0,0.63,0.1,9.98,-0.12,349.23,322.36,0.03,0.03,152.0,183.0,183.0,1.979026,1.311641,0.02526535,-0.2715945,0.00869266,-9.879246,3
367063949.0,0.63,0.1,9.98,-0.12,349.23,322.36,0.03,0.03,152.0,183.0,183.0,-0.8147498,-2.200447,0.03185984,-0.192237,-0.01964605,-9.881909,3
367113929.0,0.625,0.105,9.98,-0.12,349.205,322.335,0.03,0.03,152.0,183.0,183.0,-2.361658,0.02787947,0.04006457,-0.2033125,-0.01339891,-9.775264,3
367163909.0,0.62,0.11,9.98,-0.12,349.18,322.31,0.03,0.03,152.0,183.0,183.0,1.880777,-1.391971,0.04067636,-0.1663154,0.0301006,-9.856266,3
367163909.0,0.62,0.11,9.98,-0.12,349.18,322.31,0.03,0.03,152.0,183.0,183.0,-0.8096887,2.226222,0.039852,-0.1808996,-0.01363891,-9.820198,3
367213889.0,0.61,0.11,9.98,-0.125,349.15,322.285,0.03,0.03,152.0,183.0,183.0,-0.6109374,-2.305797,0.02817683,-0.1837369,-0.04076746,-9.854,3
367263869.0,0.6,0.11,9.98,-0.13,349.12,322.26,0.03,0.03,152.0,183.0,183.0,-2.368357,-0.241236,0.03610251,-0.1540487,-0.07128285,-9.783367,3
367263869.0,0.6,0.11,9.98,-0.13,349.12,322.26,0.03,0.03,152.0,183.0,183.0,1.862416,1.507441,0.0230929,-0.2064606,0.01276629,-9.893559,3
367313849.0,0.59,0.115,9.98,-0.13,349.095,322.23,0.03,0.03,152.0,183.0,183.0,2.105076,-1.088992,0.03830069,-0.1727114,-0.01447187,-9.913548,3
367363829.0,0.58,0.12,9.98,-0.13,349.07,322.2,0.03,0.03,152.0,183.0,183.0,-0.2090926,-2.436185,0.03053894,-0.1059967,-0.0002994,-9.796629,3
367363829.0,0.58,0.12,9.98,-0.13,349.07,322.2,0.03,0.03,152.0,183.0,183.0,-1.143669,2.077698,0.04032894,-0.1437016,0.00404927,-9.758371,3
367413809.0,0.575,0.12,9.98,-0.13,349.04,322.175,0.025,0.025,152.0,183.0,183.0,1.592942,1.670994,0.02481327,-0.1532161,0.00089311,-9.738592,3
367463789.0,0.57,0.12,9.98,-0.13,349.01,322.15,0.02,0.02,152.0,183.0,183.0,-2.21588,-0.7703385,0.03987495,-0.1471877,-0.02635173,-9.756181,3
367463789.0,0.57,0.12,9.98,-0.13,349.01,322.15,0.02,0.02,152.0,183.0,183.0,2.211919,-1.138595,0.04798932,-0.1344045,0.04815945,-9.779582,3
367513769.0,0.555,0.125,9.98,-0.13,348.985,322.125,0.02,0.02,152.0,183.0,183.0,-1.223191,1.496363,0.05999607,-0.1262325,-0.05131485,-9.79361,3
367563749.0,0.54,0.13,9.98,-0.13,348.96,322.1,0.02,0.02,152.0,183.0,183.0,1.50934,1.270531,0.06636201,-0.1555679,0.00844071,-9.756546,3
367563749.0,0.54,0.13,9.98,-0.13,348.96,322.1,0.02,0.02,152.0,183.0,183.0,-0.00772617,-2.882069,0.06239087,-0.1252346,-0.03018756,-9.74828,3
367613729.0,0.535,0.13,9.98,-0.13,348.93,322.07,0.02,0.02,151.5,183.0,183.0,-2.226631,-1.286904,0.09416156,-0.1545485,-0.05048105,-9.783658,3
367663709.0,0.53,0.13,9.98,-0.13,348.9,322.04,0.02,0.02,151.0,183.0,183.0,-1.455204,1.219704,0.1366354,-0.1795058,-0.01164028,-9.808418,3
367663709.0,0.53,0.13,9.98,-0.13,348.9,322.04,0.02,0.02,151.0,183.0,183.0,2.297909,-1.242686,0.1160447,-0.1248718,-0.00809268,-9.776993,3
367713689.0,0.52,0.13,9.98,-0.135,348.875,322.015,0.02,0.02,151.0,183.5,183.5,0.1926444,-2.965162,0.1463033,-0.1103759,-0.02736875,-9.800359,3
367763669.0,0.51,0.13,9.98,-0.14,348.85,321.99,0.02,0.02,151.0,184.0,184.0,-2.163389,-1.479938,0.1745641,-0.1889127,-0.04210459,-10.0295,3
367763669.0,0.51,0.13,9.98,-0.14,348.85,321.99,0.02,0.02,151.0,184.0,184.0,1.348659,1.449527,0.1507972,-0.1732959,0.0444286,-9.861227,3
367813649.0,0.5,0.135,9.98,-0.14,348.82,321.96,0.02,0.02,151.0,184.0,184.0,2.397835,-0.9318743,0.1929549,-0.1910097,-0.00721427,-9.914577,3
367863629.0,0.49,0.14,9.98,-0.14,348.79,321.93,0.02,0.02,151.0,184.0,184.0,-1.707396,1.125193,0.2158149,-0.264186,-0.05438789,-10.05931,3
367863629.0,0.49,0.14,9.98,-0.14,348.79,321.93,0.02,0.02,151.0,184.0,184.0,0.4301705,-2.988055,0.2137893,-0.2335775,0.00288487,-10.14711,3
367913609.0,0.485,0.14,9.98,-0.14,348.76,321.905,0.02,0.02,151.0,184.0,184.0,1.066195,1.85914,0.2154333,-0.3176464,-0.04622414,-10.12754,3
367963589.0,0.48,0.14,9.98,-0.14,348.73,321.88,0.02,0.02,151.0,184.0,184.0,-2.165195,-1.510145,0.2232502,-0.2690963,-0.06756769,-10.28478,3
367963589.0,0.48,0.14,9.98,-0.14,348.73,321.88,0.02,0.02,151.0,184.0,184.0,2.480383,-0.1754967,0.2276163,-0.3635414,-0.01104474,-10.0823,3
368013569.0,0.475,0.145,9.98,-0.14,348.705,321.85,0.02,0.02,151.0,184.0,184.0,-1.923037,1.414115,0.2367073,-0.3691711,-0.04223929,-10.32432,3
368063549.0,0.47,0.15,9.98,-0.14,348.68,321.82,0.02,0.02,151.0,184.0,184.0,0.8027775,-2.476919,0.2310229,-0.3874916,-0.02888935,-10.17814,3
368063549.0,0.47,0.15,9.98,-0.14,348.68,321.82,0.02,0.02,151.0,184.0,184.0,0.8395815,2.287692,0.2106365,-0.4839238,-0.01159269,-10.18757,3
368113529.0,0.46,0.15,9.98,-0.14,348.65,321.795,0.02,0.02,150.5,184.0,184.0,-1.951334,-1.478047,0.208019,-0.5123342,-0.01659205,-10.33338,3
368163509.0,0.45,0.15,9.98,-0.14,348.62,321.77,0.02,0.02,150.0,184.0,184.0,2.451626,0.08545372,0.2022581,-0.5242462,-0.02574903,-10.15175,3
368163509.0,0.45,0.15,9.98,-0.14,348.62,321.77,0.02,0.02,150.0,184.0,184.0,-2.044286,1.355316,0.2036439,-0.5947026,-0.06463788,-10.28592,3
368213489.0,0.435,0.15,9.985,-0.14,348.59,321.74,0.02,0.02,150.0,184.0,184.0,0.9845163,-2.469977,0.1870513,-0.5757664,-0.01149315,-10.10163,3
368263469.0,0.42,0.15,9.99,-0.14,348.56,321.71,0.02,0.02,150.0,184.0,184.0,-1.759425,-1.837781,0.1488076,-0.6429866,-0.03424441,-10.18224,3
368263469.0,0.42,0.15,9.99,-0.14,348.56,321.71,0.02,0.02,150.0,184.0,184.0,0.692733,2.392214,0.162084,-0.6420431,0.03941354,-10.2241,3
368313449.0,0.415,0.155,9.99,-0.145,348.53,321.68,0.02,0.02,150.0,184.5,184.5,2.518361,0.3468774,0.150954,-0.7523414,0.02611176,-10.1301,3
368363429.0,0.41,0.16,9.99,-0.15,348.5,321.65,0.02,0.02,150.0,185.0,185.0,-2.278589,1.094049,0.14364,-0.7480517,-0.00716163,-10.30984,3
368363429.0,0.41,0.16,9.99,-0.15,348.5,321.65,0.02,0.02,150.0,185.0,185.0,1.102681,-2.286583,0.1230571,-0.7732657,0.03640476,-10.09807,3
368413409.0,0.4,0.16,9.99,-0.15,348.47,321.62,0.02,0.02,150.0,185.0,185.0,0.1468541,2.367456,0.1045475,-0.8329321,0.01184276,-10.21858,3
368463389.0,0.39,0.16,9.99,-0.15,348.44,321.59,0.02,0.02,150.0,185.0,185.0,-1.627233,-2.037615,0.07805432,-0.9291892,-0.02445375,-10.16032,3
368463389.0,0.39,0.16,9.99,-0.15,348.44,321.59,0.02,0.02,150.0,185.0,185.0,2.432595,0.5373023,0.07387579,-0.891067,0.03084022,-10.08727,3
368513369.0,0.385,0.16,9.99,-0.15,348.41,321.56,0.02,0.02,150.0,185.0,185.0,-2.385121,0.9167293,0.0672751,-0.9832113,-0.00859646,-10.20696,3
368563349.0,0.38,0.16,9.99,-0.15,348.38,321.53,0.02,0.02,150.0,185.0,185.0,-0.09105487,2.60858,0.03452215,-1.097747,0.01175557,-10.18206,3
368563349.0,0.38,0.16,9.99,-0.15,348.38,321.53,0.02,0.02,150.0,185.0,185.0,1.240539,-2.178441,0.04921057,-0.9980949,-0.00158794,-9.990844,3
368613329.0,0.37,0.165,9.99,-0.15,348.35,321.5,0.02,0.02,150.0,185.0,185.0,-1.491261,-1.948622,0.00987674,-1.071638,0.03531365,-10.01172,3
368663309.0,0.36,0.17,9.99,-0.15,348.32,321.47,0.02,0.02,150.0,185.0,185.0,-2.476171,0.9559488,0.01272803,-1.179406,-0.05563449,-10.07012,3
368663309.0,0.36,0.17,9.99,-0.15,348.32,321.47,0.02,0.02,150.0,185.0,185.0,2.323927,1.16279,0.01202589,-1.18769,0.0156152,-10.02317,3
368713289.0,0.345,0.17,9.99,-0.15,348.29,321.44,0.02,0.02,149.5,185.0,185.0,1.584876,-1.488271,0.00687742,-1.286198,0.00900676,-9.949519,3
368763269.0,0.33,0.17,9.99,-0.15,348.26,321.41,0.02,0.02,149.0,185.0,185.0,-0.4229161,2.85652,-0.0012045,-1.382119,0.01747414,-9.929691,3
368763269.0,0.33,0.17,9.99,-0.15,348.26,321.41,0.02,0.02,149.0,185.0,185.0,-1.080471,-1.786638,-0.02221539,-1.260867,0.03254306,-9.817463,3
368813665.5,0.325,0.17,9.99,-0.15,348.23,321.38,0.02,0.02,149.0,185.0,185.0,2.12304,1.712504,-0.01939043,-1.351985,0.00325645,-9.842855,3
368864062.0,0.32,0.17,9.99,-0.15,348.2,321.35,0.02,0.02,149.0,185.0,185.0,-2.467976,0.6238021,-0.0188714,-1.333462,-0.03206924,-9.727116,3
368864062.0,0.32,0.17,9.99,-0.15,348.2,321.35,0.02,0.02,149.0,185.0,185.0,1.909228,-0.9800259,-0.01570705,-1.431972,0.02358743,-9.798908,3
368914042.0,0.315,0.17,9.99,-0.155,348.165,321.32,0.02,0.02,149.0,185.0,185.0,-0.7427195,2.759686,-0.01554185,-1.452922,-0.00306953,-9.709303,3
368964022.0,0.31,0.17,9.99,-0.16,348.13,321.29,0.02,0.02,149.0,185.0,185.0,1.872987,1.95124,-0.02765456,-1.471412,-0.00139096,-9.701071,3
368964022.0,0.31,0.17,9.99,-0.16,348.13,321.29,0.02,0.02,149.0,185.0,185.0,-0.7084612,-1.77442,-0.03291677,-1.406831,-0.01266152,-9.699903,3
369014002.0,0.305,0.175,9.99,-0.16,348.1,321.26,0.02,0.02,149.0,185.5,185.5,-2.400748,0.4706839,-0.01884325,-1.441772,-0.02642065,-9.656247,3
369063982.0,0.3,0.18,9.99,-0.16,348.07,321.23,0.02,0.02,149.0,186.0,186.0,1.922647,-0.7038314,-0.01086016,-1.477196,0.02810232,-9.735347,3
369063982.0,0.3,0.18,9.99,-0.16,348.07,321.23,0.02,0.02,149.0,186.0,186.0,-0.9185274,2.738505,-0.00514061,-1.47274,-0.00714963,-9.679309,3
369113962.0,0.29,0.18,9.99,-0.16,348.04,321.2,0.02,0.02,149.0,186.0,186.0,-0.535959,-1.81714,-0.01426031,-1.402915,-0.00626103,-9.678839,3
369163942.0,0.28,0.18,9.99,-0.16,348.01,321.17,0.02,0.02,149.0,186.0,186.0,-2.37585,0.01929346,0.00295632,-1.426044,-0.04686523,-9.739721,3
369163942.0,0.28,0.18,9.99,-0.16,348.01,321.17,0.02,0.02,149.0,186.0,186.0,1.75386,2.032711,-0.00807555,-1.435874,-0.01729427,-9.739746,3
369213922.0,0.275,0.18,9.99,-0.16,347.975,321.135,0.02,0.02,148.5,186.0,186.0,2.112111,-0.7294447,0.01391257,-1.360683,-0.02281335,-9.789673,3
369263902.0,0.27,0.18,9.99,-0.16,347.94,321.1,0.02,0.02,148.0,186.0,186.0,-0.2227215,-2.180852,0.01306336,-1.365768,-0.01949917,-9.819923,3
369263902.0,0.27,0.18,9.99,-0.16,347.94,321.1,0.02,0.02,148.0,186.0,186.0,-1.135056,2.2946,0.02388335,-1.368459,-0.05574125,-9.757769,3
369313882.0,0.265,0.18,9.99,-0.16,347.91,321.07,0.02,0.02,148.0,186.0,186.0,1.474103,1.925348,0.01906052,-1.333294,-0.02068241,-9.815519,3
369363862.0,0.26,0.18,9.99,-0.16,347.88,321.04,0.02,0.02,148.0,186.0,186.0,2.238683,-0.5648566,0.04382863,-1.246018,0.01748473,-9.911666,3
369363862.0,0.26,0.18,9.99,-0.16,347.88,321.04,0.02,0.02,148.0,186.0,186.0,-2.307085,-0.5729827,0.02641651,-1.331939,-0.01570046,-9.793406,3
369413842.0,0.25,0.18,9.99,-0.16,347.845,321.01,0.02,0.02,148.0,186.0,186.0,-1.504105,2.002844,0.05252805,-1.299172,-0.06258479,-9.771124,3
369463822.0,0.24,0.18,9.99,-0.16,347.81,320.98,0.02,0.02,148.0,186.0,186.0,0.1271683,-2.220919,0.04334984,-1.219604,-0.018763,-9.819238,3
369463822.0,0.24,0.18,9.99,-0.16,347.81,320.98,0.02,0.02,148.0,186.0,186.0,1.222568,2.127172,0.04512516,-1.18763,0.01010263,-9.877984,3
369513802.0,0.235,0.185,9.99,-0.16,347.78,320.945,0.02,0.02,148.0,186.0,186.0,-2.197717,-0.8526253,0.05072114,-1.157032,-0.05477149,-9.811077,3
369563782.0,0.23,0.19,9.99,-0.16,347.75,320.91,0.02,0.02,148.0,186.0,186.0,-1.619872,1.804014,0.07388738,-1.155212,-0.01831927,-9.83039,3
369563782.0,0.23,0.19,9.99,-0.16,347.75,320.91,0.02,0.02,148.0,186.0,186.0,2.29695,-0.3567631,0.06074585,-1.124822,-0.00994154,-9.869469,3
369613762.0,0.22,0.19,9.99,-0.165,347.715,320.88,0.02,0.02,147.5,186.5,186.5,0.2678449,-2.289671,0.06181331,-1.048079,-0.01866586,-9.935182,3
369663742.0,0.21,0.19,9.99,-0.17,347.68,320.85,0.02,0.02,147.0,187.0,187.0,-2.108254,-1.081477,0.06248361,-1.022367,0.02012731,-9.877297,3
369663742.0,0.21,0.19,9.99,-0.17,347.68,320.85,0.02,0.02,147.0,187.0,187.0,1.046534,2.145199,0.06121073,-1.102165,-0.01036988,-9.860445,3
369713722.0,0.205,0.19,9.99,-0.17,347.65,320.815,0.02,0.02,147.0,187.0,187.0,2.355371,-0.1841783,0.07335608,-1.065102,0.02039921,-9.982419,3
369763702.0,0.2,0.19,9.99,-0.17,347.62,320.78,0.02,0.02,147.0,187.0,187.0,0.5556261,-2.268244,0.07199696,-0.9017482,0.04170757,-9.914611,3
369763702.0,0.2,0.19,9.99,-0.17,347.62,320.78,0.02,0.02,147.0,187.0,187.0,-1.797779,1.641495,0.08234329,-1.017911,-0.01603132,-9.819274,3
369813682.0,0.19,0.19,9.99,-0.17,347.585,320.745,0.02,0.02,147.0,187.0,187.0,0.7885911,2.263034,0.06815389,-0.9647925,0.00721603,-9.90659,3
369863662.0,0.18,0.19,9.99,-0.17,347.55,320.71,0.02,0.02,147.0,187.0,187.0,-1.952338,-1.37505,0.06384876,-0.9356925,-0.01533209,-9.834939,3
369863662.0,0.18,0.19,9.99,-0.17,347.55,320.71,0.02,0.02,147.0,187.0,187.0,2.40106,0.1600415,0.07012028,-0.895915,0.0263066,-9.975477,3
369913642.0,0.175,0.19,9.99,-0.17,347.515,320.68,0.02,0.02,147.0,187.0,187.0,-1.998393,1.371054,0.0807684,-0.887135,0.01904421,-9.823326,3
369963622.0,0.17,0.19,9.99,-0.17,347.48,320.65,0.02,0.02,147.0,187.0,187.0,0.8844734,-2.158351,0.07052928,-0.8315991,0.01632209,-9.922206,3
369963622.0,0.17,0.19,9.99,-0.17,347.48,320.65,0.02,0.02,147.0,187.0,187.0,0.3980248,2.34732,0.06498017,-0.8182115,0.01194688,-9.858175,3
370013602.0,0.165,0.195,9.99,-0.17,347.445,320.615,0.02,0.02,147.0,187.0,187.0,-1.66627,-1.700057,0.05696814,-0.8057972,-0.01748092,-9.852741,3
370063582.0,0.16,0.2,9.99,-0.17,347.41,320.58,0.02,0.02,147.0,187.0,187.0,2.35815,0.4357483,0.06661026,-0.7832155,0.04422975,-9.968307,3
370063582.0,0.16,0.2,9.99,-0.17,347.41,320.58,0.02,0.02,147.0,187.0,187.0,-2.112001,0.9571303,0.06717572,-0.7234572,-0.03288803,-9.855456,3
370113562.0,0.15,0.2,9.99,-0.17,347.375,320.545,0.02,0.02,146.5,187.5,187.5,1.301587,-1.949726,0.06760624,-0.7037193,0.0130803,-9.882285,3
370163542.0,0.14,0.2,9.99,-0.17,347.34,320.51,0.02,0.02,146.0,188.0,188.0,0.133383,2.465058,0.05384185,-0.7720325,-0.04442444,-9.917487,3
370163542.0,0.14,0.2,9.99,-0.17,347.34,320.51,0.02,0.02,146.0,188.0,188.0,-1.452364,-1.853008,0.04465821,-0.630759,0.01280311,-9.855281,3
370213522.0,0.13,0.2,9.99,-0.17,347.305,320.475,0.02,0.02,146.0,188.0,188.0,2.328744,0.7268785,0.04912641,-0.6725473,-0.00971961,-9.936283,3
370263502.0,0.12,0.2,9.99,-0.17,347.27,320.44,0.02,0.02,146.0,188.0,188.0,-2.198997,0.6246646,0.04922179,-0.660594,-0.00268773,-9.831903,3
370263502.0,0.12,0.2,9.99,-0.17,347.27,320.44,0.02,0.02,146.0,188.0,188.0,1.623899,-1.843056,0.05571299,-0.646715,0.03651256,-9.938025,3
370313482.0,0.095,0.2,9.99,-0.17,347.235,320.405,0.02,0.02,146.0,188.0,188.0,-0.2618669,2.421344,0.03922417,-0.6225597,0.02793386,-9.916089,3
370363462.0,0.07,0.2,9.99,-0.17,347.2,320.37,0.02,0.02,146.0,188.0,188.0,-1.107373,-2.098917,0.031138,-0.5773082,0.01147719,-9.819897,3
370363462.0,0.07,0.2,9.99,-0.17,347.2,320.37,0.02,0.02,146.0,188.0,188.0,2.143814,0.9982387,0.03618898,-0.5644065,0.01968358,-9.926974,3
370413442.0,-0.095,0.2,9.99,-0.17,347.15,320.335,0.02,0.02,146.0,188.0,188.0,-2.287598,0.2933895,0.03674956,-0.5859611,-0.04693155,-9.889449,3
370463422.0,-0.26,0.2,9.99,-0.17,347.1,320.3,0.02,0.02,146.0,188.0,188.0,1.74495,-1.602826,0.0446514,-0.5555887,0.01486644,-9.929426,3
370463422.0,-0.26,0.2,9.99,-0.17,347.1,320.3,0.02,0.02,146.0,188.0,188.0,-0.5135352,2.385677,0.03220254,-0.5727355,-1.945e-05,-9.87373,3
370513402.0,-0.475,0.205,9.975,-0.17,347.045,320.265,0.02,0.02,145.5,188.0,188.0,-1.053657,-2.172099,0.02172899,-0.493354,-0.00916282,-9.863634,3
370563382.0,-0.69,0.21,9.96,-0.17,346.99,320.23,0.02,0.02,145.0,188.0,188.0,2.026051,1.158607,0.0251135,-0.5009212,0.03801591,-9.90559,3
370563382.0,-0.69,0.21,9.96,-0.17,346.99,320.23,0.02,0.02,145.0,188.0,188.0,-2.351672,0.08027835,0.02721699,-0.4384182,-0.05220609,-9.845102,3
370613362.0,-0.81,0.21,9.95,-0.17,346.94,320.195,0.015,0.015,145.0,188.0,188.0,1.8974,-1.497832,0.03781154,-0.4059898,-0.02045147,-9.89974,3
370663342.0,-0.93,0.21,9.94,-0.17,346.89,320.16,0.01,0.01,145.0,188.0,188.0,-0.7687587,-2.295772,0.01917123,-0.4514377,-0.03600141,-9.910141,3
370663342.0,-0.93,0.21,9.94,-0.17,346.89,320.16,0.01,0.01,145.0,188.0,188.0,-0.7195905,2.343801,0.02762597,-0.4385681,-0.00304725,-9.846445,3
370713322.0,-0.995,0.21,9.935,-0.17,346.85,320.12,0.01,0.01,145.0,188.5,188.5,1.874587,1.40601,0.02034493,-0.3983737,0.01903939,-9.91713,3
370763302.0,-1.06,0.21,9.93,-0.17,346.81,320.08,0.01,0.01,145.0,189.0,189.0,2.083344,-1.211749,0.03938682,-0.406752,0.07345621,-9.921503,3
370763302.0,-1.06,0.21,9.93,-0.17,346.81,320.08,0.01,0.01,145.0,189.0,189.0,-2.354907,-0.226461,0.02328837,-0.4096836,-0.04292747,-9.842432,3
370813282.0,-1.1,0.21,9.93,-0.17,346.765,320.045,0.01,0.01,145.0,189.0,189.0,-1.005014,2.14243,0.0316342,-0.3630746,-0.01559269,-9.878897,3
370863262.0,-1.14,0.21,9.93,-0.17,346.72,320.01,0.01,0.01,145.0,189.0,189.0,-0.3453196,-2.37248,0.02588921,-0.3426221,-0.01755855,-9.85535,3
370863262.0,-1.14,0.21,9.93,-0.17,346.72,320.01,0.01,0.01,145.0,189.0,189.0,1.614955,1.722106,0.02124093,-0.3857613,-0.02355745,-9.842997,3
370913658.5,-1.165,0.21,9.925,-0.17,346.68,319.97,0.01,0.01,144.5,189.0,189.0,-2.339473,-0.5469862,0.02174598,-0.3599389,-0.02790278,-9.905033,3
370964055.0,-1.19,0.21,9.92,-0.17,346.64,319.93,0.01,0.01,144.0,189.0,189.0,-1.252594,2.020928,0.03669269,-0.3017762,-0.01946599,-9.841794,3
370964055.0,-1.19,0.21,9.92,-0.17,346.64,319.93,0.01,0.01,144.0,189.0,189.0,2.210489,-0.9140667,0.03979136,-0.305683,-0.0132957,-9.9496,3
371014035.0,-1.21,0.21,9.92,-0.17,346.6,319.89,0.01,0.01,144.0,189.0,189.0,-0.1828023,-2.428652,0.02930714,-0.3029728,0.02382658,-9.855772,3
371064015.0,-1.23,0.21,9.92,-0.17,346.56,319.85,0.01,0.01,144.0,189.0,189.0,-2.283718,-0.7503088,0.02879212,-0.2734883,0.01532779,-9.891773,3
371064015.0,-1.23,0.21,9.92,-0.17,346.56,319.85,0.01,0.01,144.0,189.0,189.0,1.454291,1.757499,0.0285923,-0.2653803,0.02146996,-9.842165,3
371113995.0,-1.235,0.21,9.92,-0.17,346.52,319.81,0.01,0.01,144.0,189.0,189.0,2.245213,-0.7505621,0.04698742,-0.2696179,0.02309052,-9.852385,3
371163975.0,-1.24,0.21,9.92,-0.17,346.48,319.77,0.01,0.01,144.0,189.0,189.0,-1.428648,1.873669,0.04508276,-0.2749107,-0.00445712,-9.823969,3
371163975.0,-1.24,0.21,9.92,-0.17,346.48,319.77,0.01,0.01,144.0,189.0,189.0,0.08250405,-2.412795,0.04017175,-0.2380577,-0.03048079,-9.83471,3
371213955.0,-1.25,0.21,9.915,-0.17,346.44,319.735,0.01,0.01,144.0,189.5,189.5,1.259634,1.926056,0.03574989,-0.2589924,0.0033446,-9.872805,3
371263935.0,-1.26,0.21,9.91,-0.17,346.4,319.7,0.01,0.01,144.0,190.0,190.0,-2.188179,-1.005746,0.03707026,-0.2389866,-0.01890559,-9.862626,3
371263935.0,-1.26,0.21,9.91,-0.17,346.4,319.7,0.01,0.01,144.0,190.0,190.0,2.359151,-0.5106514,0.05439697,-0.23409,0.01209616,-9.904509,3
371313915.0,-1.27,0.21,9.91,-0.17,346.36,319.655,0.01,0.01,143.5,190.0,190.0,-1.656532,1.657556,0.05312206,-0.1783846,0.02749039,-9.813059,3
371363895.0,-1.28,0.21,9.91,-0.17,346.32,319.61,0.01,0.01,143.0,190.0,190.0,0.9501634,2.132432,0.0433071,-0.2120581,-0.01411567,-9.879267,3
371363895.0,-1.28,0.21,9.91,-0.17,346.32,319.61,0.01,0.01,143.0,190.0,190.0,0.4286798,-2.392261,0.04982605,-0.1804167,0.0081589,-9.818371,3
371413875.0,-1.29,0.21,9.91,-0.17,346.28,319.57,0.01,0.01,143.0,190.0,190.0,-2.004021,-1.292641,0.03964561,-0.1329352,-0.01586573,-9.841465,3
371463855.0,-1.3,0.21,9.91,-0.17,346.24,319.53,0.01,0.01,143.0,190.0,190.0,-1.850518,1.434847,0.0572274,-0.1952798,0.0206538,-9.736141,3
371463855.0,-1.3,0.21,9.91,-0.17,346.24,319.53,0.01,0.01,143.0,190.0,190.0,2.343054,-0.1333122,0.05552916,-0.1392712,-0.00467057,-9.87519,3
371513835.0,-1.305,0.21,9.91,-0.17,346.195,319.49,0.01,0.01,143.0,190.0,190.0,0.6637474,-2.309201,0.05423445,-0.1346311,0.00698343,-9.879334,3
371563815.0,-1.31,0.21,9.91,-0.17,346.15,319.45,0.01,0.01,143.0,190.0,190.0,-1.982829,-1.482639,0.04123493,-0.1377262,-0.02370877,-10.09908,3
371563815.0,-1.31,0.21,9.91,-0.17,346.15,319.45,0.01,0.01,143.0,190.0,190.0,0.7451632,2.203334,0.04651787,-0.1945093,-0.00029201,-9.949493,3
371613795.0,-1.32,0.21,9.91,-0.17,346.11,319.41,0.01,0.01,143.0,190.0,190.0,2.490765,-0.05903191,0.05681485,-0.08991692,0.05532702,-10.30426,3
371663775.0,-1.33,0.21,9.91,-0.17,346.07,319.37,0.01,0.01,143.0,190.0,190.0,0.8642662,-2.374741,0.05531769,-0.1215699,-0.0350911,-10.21699,3
371663775.0,-1.33,0.21,9.91,-0.17,346.07,319.37,0.01,0.01,143.0,190.0,190.0,-1.990756,1.367967,0.05830888,-0.148221,-0.00069273,-10.21322,3
371713755.0,-1.34,0.21,9.905,-0.17,346.025,319.325,0.01,0.01,142.5,190.5,190.5,0.5360571,2.338813,0.04938367,-0.1411909,0.00309093,-10.09869,3
371763735.0,-1.35,0.21,9.9,-0.17,345.98,319.28,0.01,0.01,142.0,191.0,191.0,2.395237,0.442643,0.044849,-0.1258878,-0.02339083,-10.07106,3
371763735.0,-1.35,0.21,9.9,-0.17,345.98,319.28,0.01,0.01,142.0,191.0,191.0,-1.836682,-1.662995,0.04308457,-0.1329104,-0.01343215,-10.09628,3
371813715.0,-1.36,0.21,9.9,-0.17,345.935,319.24,0.01,0.01,142.0,191.0,191.0,-2.167181,1.03825,0.05537044,-0.125242,-0.01150862,-10.01854,3
371863695.0,-1.37,0.21,9.9,-0.17,345.89,319.2,0.01,0.01,142.0,191.0,191.0,1.251811,-2.083245,0.06179348,-0.08615902,0.00184449,-10.0035,3
371863695.0,-1.37,0.21,9.9,-0.17,345.89,319.2,0.01,0.01,142.0,191.0,191.0,0.2319858,2.408901,0.04293626,-0.142659,0.06142418,-9.982499,3
371913675.0,-1.375,0.21,9.9,-0.17,345.85,319.155,0.01,0.01,142.0,191.0,191.0,-1.468621,-1.83503,0.04294758,-0.08704226,0.02844962,-9.929075,3
371963655.0,-1.38,0.21,9.9,-0.17,345.81,319.11,0.01,0.01,142.0,191.0,191.0,2.347755,0.6127063,0.04509052,-0.08945191,0.0345266,-9.928381,3
371963655.0,-1.38,0.21,9.9,-0.17,345.81,319.11,0.01,0.01,142.0,191.0,191.0,-2.19228,0.7534413,0.05219072,-0.0965198,-0.06182167,-9.851169,3
372013635.0,-1.385,0.21,9.9,-0.17,345.765,319.065,0.01,0.01,141.5,191.0,191.0,1.386571,-2.001152,0.05733971,-0.06507055,0.02624004,-9.853876,3
372063615.0,-1.39,0.21,9.9,-0.17,345.72,319.02,0.01,0.01,141.0,191.0,191.0,-1.312614,-1.946408,0.03892938,-0.0628795,-0.05120283,-9.821548,3
372063615.0,-1.39,0.21,9.9,-0.17,345.72,319.02,0.01,0.01,141.0,191.0,191.0,0.03010874,2.346533,0.04149605,-0.0736571,0.01493325,-9.866467,3
372113595.0,-1.4,0.21,9.9,-0.17,345.675,318.975,0.01,0.01,141.0,191.5,191.5,2.215075,0.8597666,0.03719563,-0.04330208,0.0362849,-9.771335,3
372163575.0,-1.41,0.21,9.9,-0.17,345.63,318.93,0.01,0.01,141.0,192.0,192.0,1.572904,-1.82888,0.05316964,-0.06360505,-0.01084204,-9.809367,3
372163575.0,-1.41,0.21,9.9,-0.17,345.63,318.93,0.01,0.01,141.0,192.0,192.0,-2.324636,0.5068664,0.04723706,-0.1031994,0.00460655,-9.791735,3
372213555.0,-1.42,0.21,9.895,-0.17,345.585,318.885,0.01,0.01,141.0,192.0,192.0,-0.3299105,2.328376,0.03916246,-0.0660039,0.01758811,-9.796813,3
372263535.0,-1.43,0.21,9.89,-0.17,345.54,318.84,0.01,0.01,141.0,192.0,192.0,2.049966,1.192012,0.03195486,-0.03468819,0.026234,-9.739093,3
372263535.0,-1.43,0.21,9.89,-0.17,345.54,318.84,0.01,0.01,141.0,192.0,192.0,-0.9738652,-2.134622,0.03545354,-0.05222842,-0.00356299,-9.750117,3
372313515.0,-1.435,0.21,9.89,-0.17,345.49,318.795,0.01,0.01,140.5,192.0,192.0,-2.376031,0.09765098,0.04258467,-0.02801359,-0.04495513,-9.730237,3
372363495.0,-1.44,0.21,9.89,-0.17,345.44,318.75,0.01,0.01,140.0,192.0,192.0,-0.5763405,2.226874,0.03501829,-0.0466376,-0.01075243,-9.750679,3
372363495.0,-1.44,0.21,9.89,-0.17,345.44,318.75,0.01,0.01,140.0,192.0,192.0,1.888773,-1.564501,0.04667529,0.02488547,0.04022469,-9.708139,3
372413475.0,-1.45,0.21,9.89,-0.17,345.395,318.705,0.01,0.01,140.0,192.0,192.0,-0.6874918,-2.209753,0.03102904,-0.05625973,-0.00318166,-9.723398,3
372463455.0,-1.46,0.21,9.89,-0.17,345.35,318.66,0.01,0.01,140.0,192.0,192.0,1.935592,1.378367,0.02675163,-0.04825151,-0.02717348,-9.727966,3
